[
    {
        "busStop": [
            {
                "dir_name": "001376ff-ab43-4f35-a6b7-9afe553ddc16",
                "lat": 47.617168,
                "lon": -122.35136399999999,
                "file_names": [
                    "07895aac-a303-45c1-b517-3491f8e74575.jpg"
                ]
            },
            {
                "dir_name": "0020c0f2-a602-4f58-91ec-994fbe5dee53",
                "lat": 47.386482,
                "lon": -122.23028500000001,
                "file_names": [
                    "c7705731-ebe5-4be6-a8f3-ae8428bd9719.jpg"
                ]
            },
            {
                "dir_name": "0021eccf-48b5-4f8b-81ee-b4ffbe7694cd",
                "lat": 47.520884,
                "lon": -122.390874,
                "file_names": [
                    "88b04c6d-3d9c-4417-b430-dfde85f163ad.jpg"
                ]
            },
            {
                "dir_name": "0022ab88-94f8-428a-aba4-beadb8b83a0b",
                "lat": 47.397214,
                "lon": -122.20266299999999,
                "file_names": [
                    "ec6fff27-6528-40d5-bdb7-8b356453c19c.jpg"
                ]
            },
            {
                "dir_name": "003c907d-2b9d-447b-99e9-ae83dad2f591",
                "lat": 47.456309999999995,
                "lon": -122.169261,
                "file_names": [
                    "bd985dca-e7de-4f39-910c-459e0980c5d8.jpg"
                ]
            },
            {
                "dir_name": "003e7548-74f5-499d-b4a1-eda0efdf5536",
                "lat": 47.710406,
                "lon": -122.28121000000002,
                "file_names": [
                    "7a199362-db45-484f-887f-cc00f0b3e03b.jpg"
                ]
            },
            {
                "dir_name": "0043fdf9-3054-45bf-b427-df58594ba023",
                "lat": 47.739278000000006,
                "lon": -122.34503600000001,
                "file_names": [
                    "3b56a137-b5ff-48b5-9cfa-2be4a79c63bf.jpg",
                    "63dfbf45-652f-457a-8523-c5517da2f177.jpg",
                    "79aca464-5d18-46e3-9d3c-1cd5eda016af.jpg",
                    "cf0eaf05-3a42-49a3-b452-0964e13cd1d3.jpg"
                ]
            },
            {
                "dir_name": "004e96a3-4e8f-40bb-a6bf-69939f33dc66",
                "lat": 47.485906,
                "lon": -122.1953,
                "file_names": [
                    "f053c0b7-5b03-49db-b690-4d4594d59b6e.jpg"
                ]
            },
            {
                "dir_name": "00585dd8-4346-493b-96e3-fb77c4fc9e3e",
                "lat": 47.619228,
                "lon": -122.30218400000001,
                "file_names": [
                    "02557cff-40ac-4fdf-8ef5-c57e851284a2.jpg"
                ]
            },
            {
                "dir_name": "0059e953-6fa5-4f0f-9f22-e12ea7508c90",
                "lat": 47.492908,
                "lon": -122.240672,
                "file_names": [
                    "644496da-9e7f-49fb-8684-5e2c7203dfc6.jpg"
                ]
            },
            {
                "dir_name": "00a8796d-2b4f-4889-af6c-69534517d4c1",
                "lat": 47.541041,
                "lon": -122.17443100000001,
                "file_names": [
                    "2123decb-6ad6-420e-9d69-b1d25c3e8471.jpg"
                ]
            },
            {
                "dir_name": "00b94d99-a273-4987-b161-18b8ca8b6e20",
                "lat": 47.620926000000004,
                "lon": -122.19478000000001,
                "file_names": [
                    "d69df43c-52d9-4615-afe4-725d383c2738.jpg",
                    "ed3e8604-903c-4595-920c-df1ba2c3a405.jpg"
                ]
            },
            {
                "dir_name": "00bb56a2-1af7-4760-8708-23a4fda4d5f9",
                "lat": 47.372068,
                "lon": -122.202127,
                "file_names": [
                    "711fb2ea-2537-4c0f-bcdc-afe74dbf1912.jpg"
                ]
            },
            {
                "dir_name": "00c49c8a-8a7f-408d-85e8-a86453fe3592",
                "lat": 47.542357,
                "lon": -122.264449,
                "file_names": [
                    "7afb1134-847d-4526-b1a6-ff668814ae33.jpg"
                ]
            },
            {
                "dir_name": "00ea4828-345a-459f-bdbf-53cdeffb3b60",
                "lat": 47.520776,
                "lon": -122.36573600000001,
                "file_names": [
                    "7bac2f45-bdb5-4984-8295-e8b361373290.jpg"
                ]
            },
            {
                "dir_name": "00f2ea8a-f661-4ed9-bf99-0710fad44087",
                "lat": 47.785444,
                "lon": -122.314903,
                "file_names": [
                    "303652e7-45c0-4053-a972-76868f58fd5f.jpg"
                ]
            },
            {
                "dir_name": "00f425f7-ef99-40f0-b14d-fad5ff526c1d",
                "lat": 47.608278000000006,
                "lon": -122.302622,
                "file_names": [
                    "303ca5ba-5ed0-4479-b1b2-86209faae3e8.jpg"
                ]
            },
            {
                "dir_name": "014310bb-1231-4c3e-aa08-cd154e843401",
                "lat": 47.613541999999995,
                "lon": -122.34521799999999,
                "file_names": [
                    "c82de97e-9ce4-4c78-a3e6-fad797e8b419.jpg"
                ]
            },
            {
                "dir_name": "01452455-c59b-4c49-b502-c6ebc049c742",
                "lat": 47.559149,
                "lon": -122.37602700000001,
                "file_names": [
                    "2bf9023c-96dd-4792-aed7-9142d94588a9.jpg"
                ]
            },
            {
                "dir_name": "01493747-4c85-49b5-bd03-4f413201814a",
                "lat": 47.317903,
                "lon": -122.299793,
                "file_names": [
                    "754f6623-eb8c-4f05-be5b-e94dc18e628f.jpg",
                    "a0815337-f847-4a9d-a448-65fb1afefbc1.jpg"
                ]
            },
            {
                "dir_name": "014d3bef-6244-457f-9199-10ef0b562df1",
                "lat": 47.488352,
                "lon": -122.15566899999999,
                "file_names": [
                    "1300fe32-5a0a-4a80-b45a-31f7e35cf39f.jpg",
                    "9cfef23a-afb1-4214-832c-122ea7d9a869.jpg"
                ]
            },
            {
                "dir_name": "016a727d-2263-4700-ac7a-d1b819e9ecb5",
                "lat": 47.556231,
                "lon": -122.123749,
                "file_names": [
                    "931eabe1-5e92-4880-8b27-505970f06df5.jpg"
                ]
            },
            {
                "dir_name": "01827737-b112-4af0-8e52-0f757d7d5249",
                "lat": 47.686456,
                "lon": -122.30278,
                "file_names": [
                    "414cdebb-ad80-4d65-85a9-6d62e105145d.jpg",
                    "8dd8ee47-7641-4cd8-8634-3674a7b8234a.jpg"
                ]
            },
            {
                "dir_name": "01889fa4-f087-49c3-b7fe-f764926e6c0e",
                "lat": 47.561196,
                "lon": -122.37701299999999,
                "file_names": [
                    "cb72acaa-f7be-4e83-a510-dcfec722573e.jpg"
                ]
            },
            {
                "dir_name": "0192ca61-24ae-4e40-b3e0-18180cdb48f2",
                "lat": 47.329976,
                "lon": -122.311889,
                "file_names": [
                    "0d9f6651-da77-4aac-8174-aea3675d2c45.jpg"
                ]
            },
            {
                "dir_name": "01af4d60-9bb7-47dd-90ca-0db5df946145",
                "lat": 47.716335,
                "lon": -122.164092,
                "file_names": [
                    "0f6c3e48-8174-4369-8cae-8e5fccfdd713.jpg"
                ]
            },
            {
                "dir_name": "01bf816a-b7ef-44ba-94be-21be31a7e838",
                "lat": 47.466945,
                "lon": -122.338894,
                "file_names": [
                    "f6da2007-9887-4f4b-972f-6ad33629e034.jpg"
                ]
            },
            {
                "dir_name": "01c149c6-62be-4a4d-a100-def3600759d1",
                "lat": 47.305794,
                "lon": -122.227483,
                "file_names": [
                    "53daf95a-6a20-4894-9e80-c55cb8143ec7.jpg",
                    "6a3817e0-bf1c-460d-a126-910dd2e44231.jpg"
                ]
            },
            {
                "dir_name": "01e432b6-a0f1-4944-834c-29cbba3551c0",
                "lat": 47.553315999999995,
                "lon": -122.17911299999999,
                "file_names": [
                    "89d396ca-e4ce-440b-9e66-c189fec5746f.jpg"
                ]
            },
            {
                "dir_name": "01e5b153-26f7-4e73-b9a2-32c8593baf9c",
                "lat": 47.37095,
                "lon": -122.197479,
                "file_names": [
                    "2e83cf34-c65a-49b6-9550-e1f6c4b3ebe7.jpg"
                ]
            },
            {
                "dir_name": "01eb068e-5b0d-4ff8-a00d-7c0deb89f670",
                "lat": 47.599053999999995,
                "lon": -122.331011,
                "file_names": [
                    "f402d1d3-fe57-4e4a-b7fb-bb39bc248702.jpg"
                ]
            },
            {
                "dir_name": "021a6a37-051d-4014-8543-173b29970f95",
                "lat": 47.621173999999996,
                "lon": -122.347402,
                "file_names": [
                    "9757b1a2-7519-457d-a785-f365926faf7d.jpg"
                ]
            },
            {
                "dir_name": "021e6418-0236-4d98-9dae-5d02e4f4fe7a",
                "lat": 47.402253,
                "lon": -122.303551,
                "file_names": [
                    "5ed0814e-0575-417c-ad1d-b83d08d088fe.jpg"
                ]
            },
            {
                "dir_name": "02327970-5328-4769-9aca-8a5014bc985c",
                "lat": 47.652136999999996,
                "lon": -122.31124399999999,
                "file_names": [
                    "b6c65185-9ef9-4c0f-90d4-ebdbd4e31614.jpg"
                ]
            },
            {
                "dir_name": "023554b1-de95-4f91-a106-dc36af68ac00",
                "lat": 47.38926,
                "lon": -122.26467,
                "file_names": [
                    "6f807404-77aa-48dc-8230-daa9838f8ff0.jpg"
                ]
            },
            {
                "dir_name": "0259e52f-69d0-4df4-86b1-a69d6d719ed0",
                "lat": 47.429759999999995,
                "lon": -122.19731000000002,
                "file_names": [
                    "801d011c-3d50-4a77-95ba-a838a8dc00b7.jpg",
                    "c8babd85-8b33-4f76-a496-f8473362ff04.jpg"
                ]
            },
            {
                "dir_name": "0273c4d1-b14d-4160-84fa-cdcdd3653d5d",
                "lat": 47.629286,
                "lon": -122.035308,
                "file_names": [
                    "cc42f3af-1d11-42b6-ab71-b7671e59bfb8.jpg"
                ]
            },
            {
                "dir_name": "02853dab-48ae-4ef6-b8b4-0004acb5efc0",
                "lat": 47.315018,
                "lon": -122.318036,
                "file_names": [
                    "5a25118a-1afa-4acf-ab61-6e6799db8b31.jpg",
                    "6d1067cb-8ef9-4512-994a-4754c7bfb4c1.jpg"
                ]
            },
            {
                "dir_name": "028c9cf1-2dcd-4855-aed3-28ec44ebf572",
                "lat": 47.372919,
                "lon": -122.16523600000001,
                "file_names": [
                    "fde369d7-0cf9-4be0-a37c-126cf03e5e6b.jpg"
                ]
            },
            {
                "dir_name": "028d638d-218b-41f2-80f6-821a539e56a4",
                "lat": 47.632166,
                "lon": -122.375046,
                "file_names": [
                    "ff2eee8f-0cc5-40d5-ac95-de1f8df50f6e.jpg"
                ]
            },
            {
                "dir_name": "0298f277-c396-428a-8dcd-bb9a1912302d",
                "lat": 47.386694,
                "lon": -122.16975500000001,
                "file_names": [
                    "e4646c4d-d224-408d-8e35-e9eade105f1e.jpg"
                ]
            },
            {
                "dir_name": "02a01887-c6dc-49f5-8195-6fd0c9553dbc",
                "lat": 47.679187,
                "lon": -122.398555,
                "file_names": [
                    "cb8a6a2b-b028-4957-9d29-5e062455aadd.jpg"
                ]
            },
            {
                "dir_name": "02a45754-018d-47c2-a01f-a39d71f2c172",
                "lat": 47.315333,
                "lon": -122.391323,
                "file_names": [
                    "5dcb59b7-fd2d-4280-8270-c61ee4ce5ce9.jpg",
                    "a8433056-356b-48f1-bb5c-be4ad098b639.jpg"
                ]
            },
            {
                "dir_name": "02d11f5e-e18f-4ee6-bd5a-68dc83406b96",
                "lat": 47.624713,
                "lon": -122.356323,
                "file_names": [
                    "a26b1670-d59e-4080-97a6-b31bf637e011.jpg"
                ]
            },
            {
                "dir_name": "02e3bf90-6563-419d-a308-b92779ac8a0f",
                "lat": 47.554963,
                "lon": -122.313317,
                "file_names": [
                    "0e22345d-8d24-420d-81e9-ab00d41764f6.jpg"
                ]
            },
            {
                "dir_name": "03156d50-61a3-4878-8e19-f2f3c1c80fe0",
                "lat": 47.548111999999996,
                "lon": -122.28684299999999,
                "file_names": [
                    "7637bb35-3963-449d-ae17-216c52632f50.jpg"
                ]
            },
            {
                "dir_name": "032cb9ef-d4d4-4560-a424-cfc3119be2b4",
                "lat": 47.687313,
                "lon": -122.301658,
                "file_names": [
                    "912247b5-9165-49f9-9738-f26411a56bdc.jpg"
                ]
            },
            {
                "dir_name": "03380042-cfd1-451b-a455-67a3913d0648",
                "lat": 47.407854,
                "lon": -122.19735,
                "file_names": [
                    "784028ee-09ab-4acf-9302-affca00f8c28.jpg",
                    "96abb2b7-b31a-4f99-b3af-fcc0be69c084.jpg"
                ]
            },
            {
                "dir_name": "03469540-9eae-467d-9dd3-42c77eef3aab",
                "lat": 47.361703999999996,
                "lon": -122.020614,
                "file_names": [
                    "1772ddef-e24a-49e6-8cc8-9592686131e6.jpg"
                ]
            },
            {
                "dir_name": "0350ced6-f90c-4a40-b46b-14947fa09448",
                "lat": 47.632234000000004,
                "lon": -122.358479,
                "file_names": [
                    "1e778b1f-76e8-4d09-b529-2bdc09d801d6.jpg"
                ]
            },
            {
                "dir_name": "0358871d-559e-4ead-9ec9-ae3f35cbcb8a",
                "lat": 47.618077,
                "lon": -122.34343,
                "file_names": [
                    "cd8b41f1-27ca-467c-8f2a-7674148a3c32.jpg"
                ]
            },
            {
                "dir_name": "036eb20c-22ad-45f5-8ee9-d004a743be7b",
                "lat": 47.553743,
                "lon": -122.28903899999999,
                "file_names": [
                    "87aa99c9-b60e-476d-825d-83aa0016bf59.jpg"
                ]
            },
            {
                "dir_name": "03715081-921d-4c56-97a7-9683b6a33579",
                "lat": 47.357953,
                "lon": -122.12396799999999,
                "file_names": [
                    "d1f489ee-1982-4f1b-84ce-5848882b2506.jpg"
                ]
            },
            {
                "dir_name": "037bc371-d51f-45e3-ac77-3f82a9b00ab0",
                "lat": 47.530401,
                "lon": -122.033107,
                "file_names": [
                    "812e9494-8543-4a22-96ca-2d84df755c0a.jpg",
                    "e6e63495-60be-41a4-ae16-321c98b4aa3b.jpg"
                ]
            },
            {
                "dir_name": "03868290-6e6d-4057-87c0-6d20706865f5",
                "lat": 47.723245,
                "lon": -122.292716,
                "file_names": [
                    "1fcf7de0-6ff4-49c4-8852-985aec1ca8a4.jpg",
                    "5b214935-ccc3-465a-8985-40fcadfa95fa.jpg",
                    "5e12c544-cfcd-47fa-b867-68ff5443b269.jpg"
                ]
            },
            {
                "dir_name": "03998728-9c56-4597-8740-ac829f60a122",
                "lat": 47.665012,
                "lon": -122.313479,
                "file_names": [
                    "87d786c5-5676-4a55-975b-08349343fe7d.jpg"
                ]
            },
            {
                "dir_name": "03a90247-6488-47a1-b277-ddc705a7139a",
                "lat": 47.458669,
                "lon": -122.254127,
                "file_names": [
                    "0da57147-55b1-4306-9a81-e6dc6a5f19d1.jpg",
                    "60e50d8b-a776-40dd-b256-302b56e5b2b8.jpg"
                ]
            },
            {
                "dir_name": "03b18f80-c2ec-4d05-91c2-f4e9143514c9",
                "lat": 47.522696999999994,
                "lon": -122.34748799999998,
                "file_names": [
                    "56571525-e667-4186-b86f-edf5aa0ee5d8.jpg"
                ]
            },
            {
                "dir_name": "03b2931f-089c-4a68-9762-03313d10b405",
                "lat": 47.517444,
                "lon": -122.34586599999999,
                "file_names": [
                    "31175ce8-5067-4d47-acf7-00e27ffbbe9e.jpg",
                    "49b5dc18-88ac-4f11-8719-19b7d04718be.jpg"
                ]
            },
            {
                "dir_name": "03bc03d7-9fa3-464b-b53c-c22ad9bf69ff",
                "lat": 47.618745000000004,
                "lon": -122.355957,
                "file_names": [
                    "37182307-0dba-4dbe-ace1-0e9b240d3efd.jpg",
                    "a47af1f0-47b6-47b8-a582-68b4a14cf9ec.jpg",
                    "ddfa4e90-76f9-4941-be29-967819abf7fb.jpg"
                ]
            },
            {
                "dir_name": "03bec176-28a8-408e-a2b6-cd96b72118ea",
                "lat": 47.548121,
                "lon": -122.30070900000001,
                "file_names": [
                    "575ee575-d1ba-47df-8223-96d1e6216165.jpg",
                    "6904bea7-40f4-478d-981f-3680b249cbe9.jpg"
                ]
            },
            {
                "dir_name": "03c10d98-bc1a-4f5f-bad4-56e40969f795",
                "lat": 47.777637,
                "lon": -122.30341100000001,
                "file_names": [
                    "109a9fcd-a3d4-4a8e-8059-7f8d1acb7b70.jpg"
                ]
            },
            {
                "dir_name": "03c6110e-8ff5-4022-b6bf-1fadfa1982a6",
                "lat": 47.48845,
                "lon": -122.17439099999999,
                "file_names": [
                    "8ecba1b6-69d4-44ee-aca6-bdc5f3c32709.jpg",
                    "91177cfe-3633-4c2a-a9ef-0bb859c5f07f.jpg"
                ]
            },
            {
                "dir_name": "03cbb0df-4440-4ab2-89c1-74e498b04530",
                "lat": 47.587521,
                "lon": -122.165543,
                "file_names": [
                    "5983d08c-f72d-4224-9662-20caf3e98093.jpg"
                ]
            },
            {
                "dir_name": "0406ab09-797d-48fe-8afa-916d3fec8c40",
                "lat": 47.379331,
                "lon": -122.32307800000001,
                "file_names": [
                    "6d00a50d-8a15-48b5-a933-4a9658968374.jpg"
                ]
            },
            {
                "dir_name": "0427769b-d8f1-4c0e-aafe-3d61f9b9dd12",
                "lat": 47.639126,
                "lon": -122.402128,
                "file_names": [
                    "ee6b5e74-c5c8-4498-b4cb-5be5ee2d96d8.jpg"
                ]
            },
            {
                "dir_name": "04280fc6-4aaa-416f-a5ce-3d25eb2c1d4b",
                "lat": 47.655677000000004,
                "lon": -122.327079,
                "file_names": [
                    "608c632a-125c-467c-a6fa-84e905ff4ffe.jpg"
                ]
            },
            {
                "dir_name": "042c7092-57f0-4ff4-95f5-048ed86ae1ac",
                "lat": 47.659515999999996,
                "lon": -122.400429,
                "file_names": [
                    "405ba6af-f94e-480b-8d56-6bf88bd0fb6d.jpg"
                ]
            },
            {
                "dir_name": "042cfb7f-ceab-42e6-ab49-8c2574e15342",
                "lat": 47.488839,
                "lon": -122.16474,
                "file_names": [
                    "bd64129f-6fc6-46f1-8be3-a6708fcc18e4.jpg",
                    "c62d041e-3f49-464c-aaa4-3f0c26a4bccc.jpg"
                ]
            },
            {
                "dir_name": "04387c83-91f9-4417-8e30-137a27f2f184",
                "lat": 47.68854,
                "lon": -122.38735,
                "file_names": [
                    "3688b656-5898-46d6-9333-e896c4d4ae3f.jpg"
                ]
            },
            {
                "dir_name": "043988ef-4615-4b57-8044-f67069f649b2",
                "lat": 47.300852,
                "lon": -122.31718899999998,
                "file_names": [
                    "4eec3929-c996-4d5c-b5b1-825f7cf1c761.jpg"
                ]
            },
            {
                "dir_name": "0459adaf-b175-4316-a26a-5e7938d3cda1",
                "lat": 47.525878000000006,
                "lon": -122.270214,
                "file_names": [
                    "7fecec4c-fddd-4431-9b5b-120a857894a3.jpg"
                ]
            },
            {
                "dir_name": "045e51ed-1eff-44a3-8da1-a83f50282148",
                "lat": 47.475787,
                "lon": -122.302568,
                "file_names": [
                    "21afef9f-012d-416f-ad40-dea821069a8d.jpg"
                ]
            },
            {
                "dir_name": "0465cb80-2271-42c4-897b-ec2df7700230",
                "lat": 47.441464,
                "lon": -122.255164,
                "file_names": [
                    "a8f8268a-9552-47d1-b257-6f473174ea38.jpg"
                ]
            },
            {
                "dir_name": "046c25b0-00b2-402e-9dcd-1c22ddbcb687",
                "lat": 47.722986999999996,
                "lon": -122.333996,
                "file_names": [
                    "adbb52a6-f2ca-4715-9fca-520505abf7f0.jpg"
                ]
            },
            {
                "dir_name": "04778619-cb98-4b23-b8a8-24ae0e768278",
                "lat": 47.506873,
                "lon": -122.178766,
                "file_names": [
                    "0c6b7429-e8f6-4bd8-a1e2-94644b54dffa.jpg",
                    "de336a98-1706-45fd-bb3b-9df275d32eb9.jpg"
                ]
            },
            {
                "dir_name": "0483a5bd-e96b-4f90-8763-444c4cfe5ca6",
                "lat": 47.763007,
                "lon": -122.33523999999998,
                "file_names": [
                    "60b9fe26-ae40-4c5d-acb4-c8c0edc9ae1f.jpg"
                ]
            },
            {
                "dir_name": "0495a751-cc79-4346-983f-dd7934b39eb2",
                "lat": 47.641732,
                "lon": -122.32609099999999,
                "file_names": [
                    "8976cd7f-5489-4a96-bda6-acaad9524e43.jpg"
                ]
            },
            {
                "dir_name": "04a982e9-1d79-474b-91f0-f4f0549a58dc",
                "lat": 47.59902,
                "lon": -122.32833600000001,
                "file_names": [
                    "3ee8c6de-349a-4ce4-ab51-a1e9bbb43c0a.jpg"
                ]
            },
            {
                "dir_name": "04b9c2fd-3669-4a01-b6dc-819134a61fe2",
                "lat": 47.607619,
                "lon": -122.296553,
                "file_names": [
                    "ce5d6241-8d97-43a9-859a-b17faeda3234.jpg"
                ]
            },
            {
                "dir_name": "04d418d2-a11b-4ca4-b270-0a359386f496",
                "lat": 47.715863,
                "lon": -122.296996,
                "file_names": [
                    "b8dbadef-9800-47b8-b4c3-5c5c3f48308d.jpg",
                    "cb473007-89b4-4b04-8bf2-a383c3069484.jpg"
                ]
            },
            {
                "dir_name": "04eaa66b-a87d-4681-a468-47fde68ded2f",
                "lat": 47.761435999999996,
                "lon": -122.13175600000001,
                "file_names": [
                    "8037a733-608a-4dd8-9529-828a1c20927c.jpg"
                ]
            },
            {
                "dir_name": "0509a485-9f3c-473a-b84a-b060a2ac6897",
                "lat": 47.675176,
                "lon": -122.137178,
                "file_names": [
                    "81f3012a-2cab-430b-aad0-81eea3310650.jpg",
                    "9f3dea11-e5c9-493e-a101-509c79360265.jpg"
                ]
            },
            {
                "dir_name": "050ec9ec-3d96-4acb-9baf-c4cdabd473ab",
                "lat": 47.692264,
                "lon": -122.311921,
                "file_names": [
                    "b2035eca-3d3b-43dc-8579-c0a952c3d0e1.jpg"
                ]
            },
            {
                "dir_name": "052255d2-0657-43a1-86f6-13fc1eb426f9",
                "lat": 47.61508,
                "lon": -122.32154399999999,
                "file_names": [
                    "07f97db7-454f-4389-862c-3ac9989921b6.jpg",
                    "4524388f-32df-4e88-9272-d3c1ef002519.jpg"
                ]
            },
            {
                "dir_name": "0529005e-8748-45a7-9e10-df6c981646f0",
                "lat": 47.700623,
                "lon": -122.32289899999999,
                "file_names": [
                    "b8025dc4-5d3b-4f8d-8887-c92d5c546f9d.jpg",
                    "df24115d-5550-42de-a842-467714261e8b.jpg"
                ]
            },
            {
                "dir_name": "052b469a-7cdd-41c9-a5cf-62c7907c13e6",
                "lat": 47.374204,
                "lon": -122.202096,
                "file_names": [
                    "096c2259-319d-44b8-988c-078306267981.jpg"
                ]
            },
            {
                "dir_name": "052c6ff3-58a8-4243-8f32-0a8fa1f4f32d",
                "lat": 47.758039000000004,
                "lon": -122.334677,
                "file_names": [
                    "a65982e4-d4b1-4398-a10b-a1a6af35bbfa.jpg"
                ]
            },
            {
                "dir_name": "0538101b-57c7-4418-a33d-f7849d45aa1d",
                "lat": 47.358207,
                "lon": -122.13676399999999,
                "file_names": [
                    "2ff42b78-9a62-4f0b-b6cb-8410baa20d3e.jpg",
                    "86f20d31-3897-4c94-8b99-44d38a1378cf.jpg"
                ]
            },
            {
                "dir_name": "053ca5b1-8f17-467f-9075-4f400ae6fcd6",
                "lat": 47.390615999999994,
                "lon": -122.308095,
                "file_names": [
                    "d1010d4f-cc35-4e5e-b71a-30adfe4e4dc2.jpg"
                ]
            },
            {
                "dir_name": "0551c44a-a8e5-4753-8df2-6bdc39fc7e68",
                "lat": 47.733290999999994,
                "lon": -122.31303799999999,
                "file_names": [
                    "bd19b05f-ce3a-430f-82b5-0c6a0b19ecdf.jpg"
                ]
            },
            {
                "dir_name": "05718537-553d-4729-913f-1ff16c10fe3d",
                "lat": 47.602948,
                "lon": -122.32111299999998,
                "file_names": [
                    "9803cd3d-7329-4e32-8d3b-29172d356519.jpg"
                ]
            },
            {
                "dir_name": "057c9bbf-3075-4af3-a5fb-3a552b037853",
                "lat": 47.569795,
                "lon": -122.29113100000001,
                "file_names": [
                    "cadd0f00-d584-4712-a64b-a05bbeb3e33c.jpg",
                    "deeb5e5e-af6c-4ecb-97c3-58042b6fc8e8.jpg"
                ]
            },
            {
                "dir_name": "05889d2b-b9b4-4c0d-8e0b-b381f04be12a",
                "lat": 47.47886,
                "lon": -122.34768100000001,
                "file_names": [
                    "c9685ab2-1f26-4bd3-a9b8-8aa7364d5454.jpg"
                ]
            },
            {
                "dir_name": "05953046-c5e3-4a3d-9562-cc8f0a8e331f",
                "lat": 47.620317,
                "lon": -122.17608200000001,
                "file_names": [
                    "d1096fe8-90eb-4949-9415-7fe8bfcd72da.jpg"
                ]
            },
            {
                "dir_name": "05983f86-ef69-4f59-9ee3-16330c1a90b1",
                "lat": 47.69089,
                "lon": -122.30780700000001,
                "file_names": [
                    "d7de7e56-515a-45cd-b67e-8893dbaf2053.jpg"
                ]
            },
            {
                "dir_name": "0598eee4-056a-47cc-86d5-f34904135849",
                "lat": 47.718498,
                "lon": -122.16801699999999,
                "file_names": [
                    "2e852974-797e-4a62-a551-e8fbbcd931c5.jpg"
                ]
            },
            {
                "dir_name": "05a43f6a-8a70-452a-9be4-80df41d57146",
                "lat": 47.528242999999996,
                "lon": -122.03435400000001,
                "file_names": [
                    "6570ab93-4003-4c0d-b16b-edb8ed26305c.jpg",
                    "f057445f-d274-4eb8-88ee-ee044b3e68ba.jpg"
                ]
            },
            {
                "dir_name": "05a71b93-9c9b-4064-ad9f-d267e0f91a30",
                "lat": 47.297090999999995,
                "lon": -122.31347099999999,
                "file_names": [
                    "e05c9e7c-7a01-4905-a7aa-fc99d32f3c8a.jpg"
                ]
            },
            {
                "dir_name": "05b75ba6-d165-4ab8-b549-a7bfffc73853",
                "lat": 47.549364000000004,
                "lon": -122.026927,
                "file_names": [
                    "9c6489ae-8e5d-4fad-a333-d3ea3fedeee5.jpg",
                    "a7d87b11-a0c4-4908-8273-c3108a014795.jpg"
                ]
            },
            {
                "dir_name": "05b7da78-db25-4264-94c3-b0b96b828e10",
                "lat": 47.285776,
                "lon": -122.174371,
                "file_names": [
                    "98ecd13f-9523-4487-a706-0b229790b1a5.jpg"
                ]
            },
            {
                "dir_name": "05bc59ab-7471-47b6-bf1a-7cab098c1c63",
                "lat": 47.333461,
                "lon": -122.21945500000001,
                "file_names": [
                    "08b81d0c-2ca1-4ff1-93ad-22f7ca4d5b02.jpg"
                ]
            },
            {
                "dir_name": "05c3fcc6-9ed6-43fc-9006-33bbbb42b5b6",
                "lat": 47.38624,
                "lon": -122.29626,
                "file_names": [
                    "f56cfc11-05c9-4225-91c2-df4cfcec6ab5.jpg"
                ]
            },
            {
                "dir_name": "05cc5f76-3125-472b-9417-1bd883095669",
                "lat": 47.59936,
                "lon": -122.328505,
                "file_names": [
                    "a1c16b0a-7e5e-48af-a020-f3dee5a31f95.jpg"
                ]
            },
            {
                "dir_name": "05d56ad9-c6f5-45c1-96ad-71e91794a399",
                "lat": 47.5536,
                "lon": -122.3765,
                "file_names": [
                    "161255fb-4c2e-4f3b-8840-afd762883a4c.jpg"
                ]
            },
            {
                "dir_name": "05ec9b2f-2126-4b30-bdf0-271200e9f4a6",
                "lat": 47.499435,
                "lon": -122.31256599999999,
                "file_names": [
                    "22902492-79a2-402d-91d2-54e5ef386cbc.jpg",
                    "c1151db9-60e0-4bc7-b96b-3a827c5e8b6a.jpg"
                ]
            },
            {
                "dir_name": "05eccc71-9ad4-4117-8225-4ffcc2c42439",
                "lat": 47.577086,
                "lon": -122.169696,
                "file_names": [
                    "5d833018-602f-44f1-b4e8-cc1c6b7e915c.jpg",
                    "e6019fe8-fc5c-46f0-ae19-324a05572b8e.jpg"
                ]
            },
            {
                "dir_name": "05fa6d92-d400-4325-b50d-15bdf92f4762",
                "lat": 47.630748,
                "lon": -122.13796,
                "file_names": [
                    "e27a7d16-161f-4001-a508-123f2068f326.jpg"
                ]
            },
            {
                "dir_name": "0614134d-d797-4c75-b22d-f4d9fabf1ed1",
                "lat": 47.533451,
                "lon": -122.36063899999999,
                "file_names": [
                    "4eff703d-5a5c-4a7f-a43f-a5213fb2d1ac.jpg"
                ]
            },
            {
                "dir_name": "06179130-47eb-404e-9c0d-6a6e263103e2",
                "lat": 47.606066999999996,
                "lon": -122.336401,
                "file_names": [
                    "c43cb835-3e7d-412c-b27f-f310ac192aaa.jpg",
                    "e818e0a8-accc-41a1-bb7b-2437ed5a5a7d.jpg"
                ]
            },
            {
                "dir_name": "0632d182-6509-4277-9e3b-19f24b828eb9",
                "lat": 47.750504,
                "lon": -122.16186,
                "file_names": [
                    "2b9d5ce3-0cd8-4dc0-b841-63f9a538ee69.jpg",
                    "39857484-03f1-4b2e-9dd4-bad601d2d454.jpg",
                    "b1533069-849e-43c3-a08c-0bd84cbe269f.jpg"
                ]
            },
            {
                "dir_name": "0668ab59-f27b-4e62-bbf4-330d0b48d1a1",
                "lat": 47.599114,
                "lon": -122.309697,
                "file_names": [
                    "4e7b57ad-9e4e-4ed5-be31-75a30674aa72.jpg",
                    "6f66ce10-662d-445f-9347-fe27aefcdc77.jpg"
                ]
            },
            {
                "dir_name": "0670db81-5699-4bed-8a47-4f0999b4faa1",
                "lat": 47.675365,
                "lon": -122.290622,
                "file_names": [
                    "009cbfb1-6dfb-4ae1-9723-f5c8e7c8472e.jpg"
                ]
            },
            {
                "dir_name": "068f3014-f651-4ea8-8c78-bb83ef2fe38e",
                "lat": 47.66474,
                "lon": -122.33396499999999,
                "file_names": [
                    "f91eec17-b42d-4dee-968d-1144d75fc02a.jpg"
                ]
            },
            {
                "dir_name": "06a682de-de3d-4089-bfea-b0970b85fbda",
                "lat": 47.679142,
                "lon": -122.355116,
                "file_names": [
                    "f1062571-8219-4776-b016-95bdf28f75bd.jpg"
                ]
            },
            {
                "dir_name": "06b1ce0b-f3dc-4129-b1fb-8e2ebe834d7c",
                "lat": 47.46309,
                "lon": -122.33227,
                "file_names": [
                    "dca90675-e1f3-4b9b-b96b-6872a8e15faa.jpg"
                ]
            },
            {
                "dir_name": "06b7f489-4bb2-472a-aca4-70db4d89b32a",
                "lat": 47.386812,
                "lon": -122.19675600000001,
                "file_names": [
                    "6f2606d6-95ef-49f0-a801-bf5729a542a8.jpg"
                ]
            },
            {
                "dir_name": "06b8bb39-8958-4d40-8def-bdc784b910f7",
                "lat": 47.677831,
                "lon": -122.201346,
                "file_names": [
                    "493657ff-2e14-4dc1-9120-185bd74adb8f.jpg"
                ]
            },
            {
                "dir_name": "06b8cfba-33de-4fe3-8b0f-34fc84693ca1",
                "lat": 47.723428000000006,
                "lon": -122.35195800000001,
                "file_names": [
                    "ecdf2191-ee79-4c3f-aef7-0250367df393.jpg"
                ]
            },
            {
                "dir_name": "06b96929-863e-4fa4-bf62-101d316067fc",
                "lat": 47.315756,
                "lon": -122.31308700000001,
                "file_names": [
                    "e5487e5a-6f73-4b67-87ea-b447d02ad0b7.jpg"
                ]
            },
            {
                "dir_name": "06c1358e-c8db-4dd0-983e-033275e70e76",
                "lat": 47.532123,
                "lon": -122.036658,
                "file_names": [
                    "270a581a-5808-48a0-9ebc-66e44f994b75.jpg",
                    "bce21391-5199-4b1d-96f7-023d9cf38247.jpg",
                    "c3a0c747-bd66-4a6f-95ae-6e4c03e77842.jpg"
                ]
            },
            {
                "dir_name": "06cad405-dd5f-4f69-9acf-ead11e428151",
                "lat": 47.442017,
                "lon": -122.209354,
                "file_names": [
                    "93da5102-5f77-4b2d-a2b2-d0c257079b90.jpg",
                    "b436d5d5-27e6-446f-a634-313b65151293.jpg"
                ]
            },
            {
                "dir_name": "06d09d01-6792-4adb-8e0f-7e13e7388dc5",
                "lat": 47.571157,
                "lon": -122.138361,
                "file_names": [
                    "81f9ca85-2176-4937-8c19-2d3ff7e08aaf.jpg"
                ]
            },
            {
                "dir_name": "06ecd9cd-768f-4424-8af1-949cf7756f0d",
                "lat": 47.650569,
                "lon": -122.39273700000001,
                "file_names": [
                    "eb544018-ab53-400c-84f5-e86caa3ec165.jpg"
                ]
            },
            {
                "dir_name": "06eed31e-fee6-4051-85f4-12371b63cb3c",
                "lat": 47.652738,
                "lon": -122.11726000000002,
                "file_names": [
                    "037e66a7-6628-451d-a76b-1ef285b43317.jpg"
                ]
            },
            {
                "dir_name": "06f4e840-9292-4d3a-b03e-2f48ae854018",
                "lat": 47.387217,
                "lon": -122.23088200000001,
                "file_names": [
                    "a5891a6c-6e5a-40e6-8832-ac43be83d323.jpg"
                ]
            },
            {
                "dir_name": "071da2b2-2209-4992-9923-752f29fcdb48",
                "lat": 47.438877000000005,
                "lon": -122.334496,
                "file_names": [
                    "30793bc9-34b8-4a97-a764-7f20c8abdeaa.jpg",
                    "fab70090-b905-43af-87a8-be4843498bd1.jpg"
                ]
            },
            {
                "dir_name": "072687ef-49ad-4066-9d7c-792c3078ef83",
                "lat": 47.754311,
                "lon": -122.163,
                "file_names": [
                    "a90ac4ab-645e-4227-ba7f-454709d0182a.jpg"
                ]
            },
            {
                "dir_name": "073439ab-4707-4c5e-b2dc-4300d45073a5",
                "lat": 47.631519,
                "lon": -122.191093,
                "file_names": [
                    "51e0d453-bfdf-4d68-8ed1-be2c5d9603e1.jpg"
                ]
            },
            {
                "dir_name": "07537995-51ed-4374-92bc-036736b649b0",
                "lat": 47.73364,
                "lon": -122.29578899999998,
                "file_names": [
                    "406d1824-fe7d-43d2-a810-58f54e52e5bb.jpg"
                ]
            },
            {
                "dir_name": "075bee16-9171-4771-8e86-501fef80d7c3",
                "lat": 47.737157,
                "lon": -122.30176000000002,
                "file_names": [
                    "d6281c41-172a-467f-acea-8e55025f43a6.jpg"
                ]
            },
            {
                "dir_name": "0764a860-e79b-4f31-8b23-af2b43790ec3",
                "lat": 47.660872,
                "lon": -122.39293,
                "file_names": [
                    "557b2a61-f75f-42f7-8206-86f95b1347f4.jpg"
                ]
            },
            {
                "dir_name": "076e6e00-ed70-4a59-8cfb-386798954f3f",
                "lat": 47.337845,
                "lon": -122.28331999999999,
                "file_names": [
                    "c6883649-2d10-44f9-b005-5631a48f1ca2.jpg"
                ]
            },
            {
                "dir_name": "0776e3ce-5b0c-46a0-b080-0b0b3c45489b",
                "lat": 47.441325,
                "lon": -122.23352299999999,
                "file_names": [
                    "d809dccb-40e7-4fe7-a5e5-21bb6bb2a9e7.jpg"
                ]
            },
            {
                "dir_name": "07853a27-05f7-42ac-9487-94a6308e30b2",
                "lat": 47.765342,
                "lon": -122.362103,
                "file_names": [
                    "595fe25b-3761-43c1-84e4-d7768a2dc6b1.jpg",
                    "6e6a02a5-4b4a-4593-af88-6020045beb1c.jpg"
                ]
            },
            {
                "dir_name": "0788badd-f2a7-4e88-8596-20c1cdb32309",
                "lat": 47.60156,
                "lon": -122.32963799999999,
                "file_names": [
                    "3f35dc6f-5f9d-4053-a5ee-5edab037f0e8.jpg"
                ]
            },
            {
                "dir_name": "07918be2-12e4-419c-aadc-115e3530d4d1",
                "lat": 47.295103000000005,
                "lon": -122.250202,
                "file_names": [
                    "dceec131-8959-4b1a-94eb-b48e40cca38f.jpg"
                ]
            },
            {
                "dir_name": "0796bb82-7b42-47e5-b35e-45b305feb5c9",
                "lat": 47.556985,
                "lon": -122.11815700000001,
                "file_names": [
                    "837aabe1-62c1-4f35-afc8-c7ef75da46db.jpg"
                ]
            },
            {
                "dir_name": "079a06c1-ecb8-4ede-ae87-aaf7db53d922",
                "lat": 47.678994,
                "lon": -122.263861,
                "file_names": [
                    "4665639f-0ca3-4b78-9094-cd4cbbaea33d.jpg",
                    "e672ed9b-85b4-4dd8-8617-051dd9f5eb49.jpg"
                ]
            },
            {
                "dir_name": "07b118b3-f5fb-4563-85ae-50755ced9e69",
                "lat": 47.631109,
                "lon": -122.109372,
                "file_names": [
                    "a3c86d34-8071-4e22-aea0-2908ee693f19.jpg"
                ]
            },
            {
                "dir_name": "08125f50-5c47-4c74-a601-61231f6f32d5",
                "lat": 47.686938,
                "lon": -122.31816299999998,
                "file_names": [
                    "7f48cc52-0e0f-4385-86d8-46d7128a0057.jpg"
                ]
            },
            {
                "dir_name": "0812d292-c97a-41da-8bb7-abdf2ee669eb",
                "lat": 47.357787,
                "lon": -122.158479,
                "file_names": [
                    "056814cb-2d33-432b-9c33-43bc4c4f05b6.jpg"
                ]
            },
            {
                "dir_name": "08297811-a83b-4f56-93ed-014003bd84f0",
                "lat": 47.708115,
                "lon": -122.334251,
                "file_names": [
                    "1ee3dee9-6c0c-4ad1-8e1f-619f26a216ea.jpg"
                ]
            },
            {
                "dir_name": "08367263-b917-493f-a491-e3174722718d",
                "lat": 47.386448,
                "lon": -122.20245200000001,
                "file_names": [
                    "48e248a4-a54e-42cc-a408-5b2dc5c5c8b2.jpg",
                    "e51e9bf4-8150-43c3-b7e4-cd6284e82b9b.jpg"
                ]
            },
            {
                "dir_name": "083c3669-d15a-459c-819c-342d227b0822",
                "lat": 47.611605,
                "lon": -122.320523,
                "file_names": [
                    "7d43b043-9dd2-4d24-9f77-4c2d2cee2128.jpg",
                    "c6571f69-433f-4a8a-bc70-7c55455a2a8a.jpg",
                    "e73a8a10-7345-4e59-889e-92fe887dae48.jpg"
                ]
            },
            {
                "dir_name": "084ff3d9-1a92-4de4-9a4b-981aaa0236dd",
                "lat": 47.648823,
                "lon": -122.409416,
                "file_names": [
                    "6f105e4f-5e83-4063-b0c8-913904db90c8.jpg"
                ]
            },
            {
                "dir_name": "085394bf-aeb1-4182-9b1f-f7a8fcad4dbe",
                "lat": 47.68618,
                "lon": -122.164662,
                "file_names": [
                    "b78e7214-f756-46f4-9e07-f48259b4eb36.jpg"
                ]
            },
            {
                "dir_name": "08563df2-5d77-446d-b37e-3a37654ac025",
                "lat": 47.516052,
                "lon": -122.191534,
                "file_names": [
                    "2d5ad97f-bc36-4999-b459-1b5526bbfed0.jpg"
                ]
            },
            {
                "dir_name": "0872e8bf-9947-43d6-b032-0dd6dd4cab70",
                "lat": 47.445407,
                "lon": -122.29481399999999,
                "file_names": [
                    "1535e50a-ab78-425e-8216-f1d4fb17f165.jpg"
                ]
            },
            {
                "dir_name": "0881a7d9-954c-4c66-8085-98600df22434",
                "lat": 47.542372,
                "lon": -122.06231899999999,
                "file_names": [
                    "d5869a92-f1dd-461a-9f2d-4f1dfeddf60a.jpg"
                ]
            },
            {
                "dir_name": "08b23aef-96ed-4029-9950-d215ee7c5588",
                "lat": 47.631915,
                "lon": -122.35675,
                "file_names": [
                    "027c9335-10d9-48a3-8da6-b41e3304c89a.jpg"
                ]
            },
            {
                "dir_name": "08b517f6-1294-4164-8992-197bfe6aee13",
                "lat": 47.618159999999996,
                "lon": -122.331432,
                "file_names": [
                    "19360fdf-b554-4115-a98c-bfffb4a3113c.jpg",
                    "4223c408-fc16-4ec3-b003-84d785d10c7f.jpg",
                    "81f30eb0-aa82-417b-bb8b-563985d5a6fd.jpg"
                ]
            },
            {
                "dir_name": "08dcc12f-0ac4-4fe3-a12f-523f05592b15",
                "lat": 47.708607,
                "lon": -122.290497,
                "file_names": [
                    "b6baae7b-f9ed-4ea1-9458-39d968cf78a1.jpg"
                ]
            },
            {
                "dir_name": "08dd552b-319e-464c-b96e-99a1ab538b7f",
                "lat": 47.491035,
                "lon": -122.298594,
                "file_names": [
                    "7f0cf267-5215-4da7-bc33-919a5960f41c.jpg",
                    "e2bf9b62-9f18-4532-aacb-e6761551c25d.jpg",
                    "e7084f89-5d2e-4868-942d-12eb583e45e1.jpg"
                ]
            },
            {
                "dir_name": "090bdcc8-3c33-4e18-b52e-50dddb58d1f1",
                "lat": 47.745171,
                "lon": -122.352728,
                "file_names": [
                    "54e3156b-7bbf-4263-a93e-b839b28fb0c6.jpg",
                    "ad75c67f-476f-40e9-b099-5c5f621dce16.jpg"
                ]
            },
            {
                "dir_name": "0915f571-8516-4810-949c-046f8bbbe833",
                "lat": 47.596928999999996,
                "lon": -122.14241799999999,
                "file_names": [
                    "bb0cb502-b747-4fca-a388-36b02758f223.jpg"
                ]
            },
            {
                "dir_name": "092dde38-80d8-4e42-adae-6388b2901f45",
                "lat": 47.621809000000006,
                "lon": -122.35696499999999,
                "file_names": [
                    "e6112227-7d92-4ddb-8165-3b56cf005204.jpg"
                ]
            },
            {
                "dir_name": "093534fe-a86e-4ab6-95db-b5681e9635b8",
                "lat": 47.648821000000005,
                "lon": -122.39273899999999,
                "file_names": [
                    "c4eeb384-ba74-49b6-9b83-692909ad3ef5.jpg"
                ]
            },
            {
                "dir_name": "093b130c-c370-4dbd-b2cb-a9ec281d3a75",
                "lat": 47.436595000000004,
                "lon": -122.197226,
                "file_names": [
                    "a6052a2f-76cc-46f0-8da7-f640b6d5bc08.jpg"
                ]
            },
            {
                "dir_name": "093d2019-1446-4b51-86d2-14d8a9e83111",
                "lat": 47.71472,
                "lon": -122.18345,
                "file_names": [
                    "5c59df66-4b16-4246-b6c7-07f52c44aa40.jpg"
                ]
            },
            {
                "dir_name": "09420d9a-b796-4569-be0b-699ba5fcdb53",
                "lat": 47.35824,
                "lon": -122.141116,
                "file_names": [
                    "d90b6373-9150-493b-b6bf-724d04fee868.jpg"
                ]
            },
            {
                "dir_name": "094afacc-c4ee-4d4f-bfc6-8827bcd8ae7c",
                "lat": 47.45641,
                "lon": -122.28066100000001,
                "file_names": [
                    "f57efbe8-a1e4-4a37-a304-911353cb7f0a.jpg"
                ]
            },
            {
                "dir_name": "0983b06f-28e3-487f-9edb-bf84f8eae4ca",
                "lat": 47.404325,
                "lon": -122.28068700000001,
                "file_names": [
                    "0121d7f9-46d2-410b-9e72-0bee2f5a08c4.jpg"
                ]
            },
            {
                "dir_name": "0989b0d1-3028-4ac2-84a7-2d3bc6a8fc65",
                "lat": 47.314938,
                "lon": -122.28424,
                "file_names": [
                    "ab0e4efc-0bad-4763-aa87-01dce758eab5.jpg"
                ]
            },
            {
                "dir_name": "098a7b0d-5387-49c3-adfa-956181d32378",
                "lat": 47.705314,
                "lon": -122.175953,
                "file_names": [
                    "fb287625-4d5c-4db7-a886-00a1e223cb3f.jpg"
                ]
            },
            {
                "dir_name": "098dbf8b-23b4-498b-80de-c3e14767ea4b",
                "lat": 47.616531,
                "lon": -122.335219,
                "file_names": [
                    "72a563b7-4034-4b60-94b3-b23ec4ee2592.jpg"
                ]
            },
            {
                "dir_name": "098e5ef5-4876-45ad-b64c-82a07242854c",
                "lat": 47.565451,
                "lon": -122.006424,
                "file_names": [
                    "6d3b9cab-d535-4ab5-a736-83b48fe727ad.jpg",
                    "c8a7c38a-bbe0-42ef-b851-2101c29a4512.jpg"
                ]
            },
            {
                "dir_name": "09992692-3602-489e-8583-fbe298f1c976",
                "lat": 47.680299,
                "lon": -122.20371899999999,
                "file_names": [
                    "d50d4d22-51ef-4604-9c20-ba58d4b11255.jpg"
                ]
            },
            {
                "dir_name": "0999e199-e861-4234-9bb0-9b8fa707833f",
                "lat": 47.711946999999995,
                "lon": -122.34511599999999,
                "file_names": [
                    "e5e10f50-e1d0-4b38-8134-a9c16c89921f.jpg"
                ]
            },
            {
                "dir_name": "09d1a5fc-227a-471a-81cb-37eef2a5e634",
                "lat": 47.531735999999995,
                "lon": -122.34701899999999,
                "file_names": [
                    "34decebd-6129-4960-84fe-1560c454a182.jpg"
                ]
            },
            {
                "dir_name": "09dfbca3-ea29-4ff2-8f8f-ed1c7d377b3a",
                "lat": 47.690444,
                "lon": -122.391671,
                "file_names": [
                    "c2144627-5375-4e23-8e7c-e631a7056eb7.jpg"
                ]
            },
            {
                "dir_name": "09e4f0a8-4512-44ff-926f-e264ff467d51",
                "lat": 47.668822,
                "lon": -122.37930700000001,
                "file_names": [
                    "59ffb80c-8e6e-4184-8e5d-1f9cf645706e.jpg",
                    "abbc58ac-8ca2-4d1d-8fea-ce66f34528c1.jpg"
                ]
            },
            {
                "dir_name": "09e784a5-e83d-469c-a40d-5a0c61267e71",
                "lat": 47.523075,
                "lon": -122.35491,
                "file_names": [
                    "ecf701a3-27cd-4ff3-b7bd-70e1824f4fa0.jpg"
                ]
            },
            {
                "dir_name": "09e8b2bf-1777-400e-af5c-1d5376a8ba97",
                "lat": 47.499321,
                "lon": -122.35548100000001,
                "file_names": [
                    "09d02987-0d0b-406c-a9b9-0eec26b786fc.jpg"
                ]
            },
            {
                "dir_name": "09eab3f3-3ebb-4bbc-825c-5da33ec80e54",
                "lat": 47.493285,
                "lon": -122.175234,
                "file_names": [
                    "59da629e-b1f8-4a8d-8edd-81d30a0f2553.jpg"
                ]
            },
            {
                "dir_name": "0a3c0e8b-4369-46bd-b767-488d46ed1441",
                "lat": 47.466339000000005,
                "lon": -122.143023,
                "file_names": [
                    "1e67b14f-1665-4e3c-8e64-b950fecd2524.jpg"
                ]
            },
            {
                "dir_name": "0a58b04f-be87-4a56-a87a-8422c5455e81",
                "lat": 47.517589,
                "lon": -122.376496,
                "file_names": [
                    "0e648fff-7f59-4be6-b043-166d2ef9b814.jpg",
                    "9a95f3c5-7f08-4bdd-887a-b603863c8833.jpg"
                ]
            },
            {
                "dir_name": "0a5fab85-bf3b-4836-8584-47c9191026ce",
                "lat": 47.605435,
                "lon": -122.331698,
                "file_names": [
                    "5ac6f672-51e7-44c9-a01d-d11b30351fcf.jpg",
                    "8aa8ff6f-99af-43ed-ba3d-6c1ef0efd0e0.jpg"
                ]
            },
            {
                "dir_name": "0ab830f0-498b-49c6-9ef5-ec3f764e7959",
                "lat": 47.609674,
                "lon": -122.34053300000001,
                "file_names": [
                    "44f4cec9-0e94-4967-8271-ac22f97ad9ae.jpg",
                    "bc788f2b-f7f6-464e-8c3c-a7c4cef85b71.jpg"
                ]
            },
            {
                "dir_name": "0aca768e-6477-4dd7-a4e5-761334b1b0df",
                "lat": 47.640802,
                "lon": -122.344343,
                "file_names": [
                    "cdd78002-9c76-4138-b787-ae25e6f578cd.jpg"
                ]
            },
            {
                "dir_name": "0acbe401-3332-4a8f-af1b-1a0c49820da0",
                "lat": 47.78752,
                "lon": -122.316181,
                "file_names": [
                    "bb255521-bfa1-4857-9365-08b8da506521.jpg"
                ]
            },
            {
                "dir_name": "0ad3abfb-a07b-41bb-981d-615ccc955083",
                "lat": 47.199884000000004,
                "lon": -121.98240200000001,
                "file_names": [
                    "06fe490a-3994-4417-b588-06f5162a0b60.jpg",
                    "a2f4a43f-adee-44c0-a0f9-a1f0a061b859.jpg"
                ]
            },
            {
                "dir_name": "0ad82c81-d70f-4c92-9b27-65f4965940e4",
                "lat": 47.612784000000005,
                "lon": -122.30179199999999,
                "file_names": [
                    "4d96ece5-f529-444e-be0f-a904dbfb916f.jpg"
                ]
            },
            {
                "dir_name": "0ae58841-5181-489d-96b2-1672d0356e0f",
                "lat": 47.442074,
                "lon": -122.12596699999999,
                "file_names": [
                    "f248f59a-9342-4d20-9416-d6cd8b4f5353.jpg"
                ]
            },
            {
                "dir_name": "0af17096-9934-4be5-9a77-86292debd823",
                "lat": 47.577706,
                "lon": -122.386486,
                "file_names": [
                    "ef159abc-07d4-4ccb-bfd5-bd453b12d18d.jpg"
                ]
            },
            {
                "dir_name": "0b13ea40-4302-4209-be51-415f69f218a0",
                "lat": 47.613157,
                "lon": -122.32054099999999,
                "file_names": [
                    "0e212f54-5849-4b66-99cf-3f9f821ff2e6.jpg",
                    "24d49528-bf4b-42ed-b1cb-9473f7926c0e.jpg",
                    "7f241178-ac98-4fd9-b6e8-f7f24493361f.jpg",
                    "ad6c050e-739e-4792-bd74-6b62a6865c26.jpg"
                ]
            },
            {
                "dir_name": "0b291dec-a0a9-4bf2-97cb-53ca99eac671",
                "lat": 47.568727,
                "lon": -122.169249,
                "file_names": [
                    "523848ae-1286-4e76-a887-2a1e4dd16ae6.jpg"
                ]
            },
            {
                "dir_name": "0b2a4d8b-af60-449d-b2e1-9c452a1c3e7c",
                "lat": 47.358641999999996,
                "lon": -122.08578899999999,
                "file_names": [
                    "37f9e150-e369-49ff-b278-00f21b2f1e98.jpg",
                    "eedd7dda-3f06-45da-9789-79875d0281a0.jpg"
                ]
            },
            {
                "dir_name": "0b30fe6a-1fe5-48b0-a3d9-878ab7ff0e25",
                "lat": 47.616526,
                "lon": -122.132651,
                "file_names": [
                    "3e89a840-e3d3-4e9d-8732-21e2559de279.jpg"
                ]
            },
            {
                "dir_name": "0b376c6a-f671-48b7-8e4f-6fac3d941d83",
                "lat": 47.678490000000004,
                "lon": -122.199069,
                "file_names": [
                    "5b785df1-e0c0-424b-b933-001f40633854.jpg"
                ]
            },
            {
                "dir_name": "0b37c770-aad1-416f-a93b-a21936e0adcd",
                "lat": 47.289315,
                "lon": -122.197112,
                "file_names": [
                    "b919ca71-ab9e-468a-809b-a59e6b372386.jpg"
                ]
            },
            {
                "dir_name": "0b3be64f-0b97-4a1f-83a7-559bc6b206e8",
                "lat": 47.602043,
                "lon": -122.30220700000001,
                "file_names": [
                    "b0100449-0daa-465d-9ecf-da8a48d8a19e.jpg"
                ]
            },
            {
                "dir_name": "0b3ecda3-be9d-4d0a-8040-ae4f8e69a22b",
                "lat": 47.755379,
                "lon": -122.081204,
                "file_names": [
                    "706f8290-39ec-429c-a95b-b48492c46c00.jpg"
                ]
            },
            {
                "dir_name": "0b51af86-e9ea-4471-b669-007e0b7bf06b",
                "lat": 47.612607000000004,
                "lon": -122.32242600000001,
                "file_names": [
                    "511f920c-2aed-4a11-9603-204505da2ac8.jpg",
                    "f8ca746a-361a-4439-9df8-1b61c32c7fb9.jpg"
                ]
            },
            {
                "dir_name": "0b63981b-386a-49f5-9415-fe7e171271a1",
                "lat": 47.514111,
                "lon": -122.354125,
                "file_names": [
                    "a76b5a27-04d2-47a7-be76-8a0431651c21.jpg"
                ]
            },
            {
                "dir_name": "0b693d66-aff1-4b46-86f2-1b0f6d739b31",
                "lat": 47.744756,
                "lon": -122.34576000000001,
                "file_names": [
                    "486f441d-f780-4b48-b61b-c69a96a45582.jpg",
                    "98aefb89-a6d6-4d5e-ba4d-bc0eea73b32c.jpg"
                ]
            },
            {
                "dir_name": "0b73524c-c84f-42fd-98d6-581f3a8215d2",
                "lat": 47.757599,
                "lon": -122.33506299999999,
                "file_names": [
                    "04ff4400-33e9-41b3-b3c9-49579657ca0f.jpg"
                ]
            },
            {
                "dir_name": "0b76d734-19e6-4e3c-8171-a83c08dc236e",
                "lat": 47.381223,
                "lon": -122.246606,
                "file_names": [
                    "08c2d8eb-e7ce-4709-9e67-34427d4611df.jpg",
                    "42b47b6c-890f-4349-8d5e-1bd87edfcb2b.jpg"
                ]
            },
            {
                "dir_name": "0b89f2db-ae48-4c1a-ab73-5b3d6d01922b",
                "lat": 47.650324,
                "lon": -122.306997,
                "file_names": [
                    "8b7bcdf3-88ff-4e10-9dd3-03e89fd7e9c5.jpg"
                ]
            },
            {
                "dir_name": "0ba77b54-1ab5-42a0-982d-0274844f8c3e",
                "lat": 47.291296,
                "lon": -122.33712,
                "file_names": [
                    "22edee79-0524-41f5-ab74-44a81d10a9d0.jpg"
                ]
            },
            {
                "dir_name": "0bac2b78-ab12-42a4-bc48-e24e9b213584",
                "lat": 47.722871999999995,
                "lon": -122.204779,
                "file_names": [
                    "b655d335-5c0e-4f3e-a011-1fa717227d30.jpg",
                    "f2cf5142-1bdd-41fc-872b-f740c3ecd69a.jpg"
                ]
            },
            {
                "dir_name": "0bb6d432-cd05-4618-aa57-b33cc2a9a318",
                "lat": 47.391161,
                "lon": -122.308003,
                "file_names": [
                    "e0af6b47-f99c-451d-a2b4-3bbe90441f90.jpg"
                ]
            },
            {
                "dir_name": "0bd0cbbc-0ebe-4afa-a5f5-e504b50f187f",
                "lat": 47.625104,
                "lon": -122.153925,
                "file_names": [
                    "304057d1-6234-4823-aa2f-4917a2c40b33.jpg",
                    "5bed58ce-358d-4f8c-95c7-58e6dd473d1d.jpg"
                ]
            },
            {
                "dir_name": "0bea4c92-c7b9-4b4a-8cce-d59ad4934ef1",
                "lat": 47.772358000000004,
                "lon": -122.30580900000001,
                "file_names": [
                    "af4584f2-05ac-4752-8255-5af3baa9fba4.jpg"
                ]
            },
            {
                "dir_name": "0bf1c1ca-20d5-4393-8c81-81c233871363",
                "lat": 47.719062,
                "lon": -122.293019,
                "file_names": [
                    "1d877104-5400-4626-81f2-7260617ebbb9.jpg"
                ]
            },
            {
                "dir_name": "0bff6bee-89f7-4c7f-8bf8-094aa1cc2b0a",
                "lat": 47.531293,
                "lon": -122.278449,
                "file_names": [
                    "b4d2bd0f-8979-4875-95f0-e47198496013.jpg"
                ]
            },
            {
                "dir_name": "0c056bca-eef8-4ee7-a187-3f7bd6993fbe",
                "lat": 47.769895,
                "lon": -122.37651100000001,
                "file_names": [
                    "6ed46d01-7477-4491-9068-c531d96a1985.jpg",
                    "9f343d78-e980-4942-8178-d6aebe540f0f.jpg"
                ]
            },
            {
                "dir_name": "0c0f969b-6189-474e-bcb7-9c4c9bacd4a6",
                "lat": 47.549912,
                "lon": -122.040201,
                "file_names": [
                    "1464f55d-7538-4f19-86f1-5482993adf42.jpg"
                ]
            },
            {
                "dir_name": "0c13b20b-aa7e-4571-947b-f6e4fac7f077",
                "lat": 47.612778999999996,
                "lon": -122.30657099999999,
                "file_names": [
                    "2ad45308-bc31-4ede-b892-c8d886bfb87a.jpg",
                    "9f4e908e-8925-446e-9f52-fba5484e2287.jpg"
                ]
            },
            {
                "dir_name": "0c17e3bf-cab8-4f8e-890c-613f5e66da91",
                "lat": 47.466601000000004,
                "lon": -122.36038,
                "file_names": [
                    "ce3b0b86-fd3a-472c-948c-6be2253f521b.jpg"
                ]
            },
            {
                "dir_name": "0c2258c3-8a86-4df9-8d0e-ea752b24191f",
                "lat": 47.718303000000006,
                "lon": -122.174888,
                "file_names": [
                    "39258c74-68c0-490b-a1dd-145a7611dfac.jpg"
                ]
            },
            {
                "dir_name": "0c24e4fd-a54b-4117-9174-b646996a54d5",
                "lat": 47.637370000000004,
                "lon": -122.191352,
                "file_names": [
                    "c9ac6a06-8c8a-4396-9367-6480eb646b21.jpg"
                ]
            },
            {
                "dir_name": "0c273ffc-f2cd-4c44-88dd-d2ebf088f3b9",
                "lat": 47.519037,
                "lon": -122.377178,
                "file_names": [
                    "680e2388-4cd0-4679-85b3-c5ab52452d22.jpg"
                ]
            },
            {
                "dir_name": "0c2a912c-3d96-4f1c-a8ec-604f3510e584",
                "lat": 47.300328,
                "lon": -122.313725,
                "file_names": [
                    "580866c1-affb-4a95-a411-47740c236d43.jpg",
                    "8f518de8-c439-4078-a2a5-e7a11af8e000.jpg"
                ]
            },
            {
                "dir_name": "0c2c6e07-7088-4307-87ad-5e27a22a6eb7",
                "lat": 47.619876,
                "lon": -122.17413400000001,
                "file_names": [
                    "f3f06046-938e-419d-889e-718688275643.jpg"
                ]
            },
            {
                "dir_name": "0c320f89-f0ea-49ee-86c3-86b0c6257919",
                "lat": 47.686442,
                "lon": -122.300505,
                "file_names": [
                    "1479f963-f77c-488a-a745-924ed9811077.jpg",
                    "24bbf405-1668-4de4-ad65-9c52e6864a00.jpg"
                ]
            },
            {
                "dir_name": "0c3a02e9-890a-4be4-85bb-0d20bba0c8b1",
                "lat": 47.665144,
                "lon": -122.31613899999999,
                "file_names": [
                    "2aa377ee-ff37-4023-be08-3d3730d06d6d.jpg"
                ]
            },
            {
                "dir_name": "0c593855-cef1-432e-9952-d1909b0ad0c7",
                "lat": 47.556296,
                "lon": -122.303179,
                "file_names": [
                    "377862d9-a5c7-4eba-a1ff-9ca35f82fbcf.jpg"
                ]
            },
            {
                "dir_name": "0c60beb2-465e-4519-bb64-8af9b901f660",
                "lat": 47.680932,
                "lon": -122.290815,
                "file_names": [
                    "1efa915e-7090-4e57-9f70-eb665524b48f.jpg"
                ]
            },
            {
                "dir_name": "0c7502c2-6da5-4f9e-ac16-4c1967efa058",
                "lat": 47.517552,
                "lon": -122.27023,
                "file_names": [
                    "325595c0-715a-4ef1-afe3-6603cd1aadd2.jpg"
                ]
            },
            {
                "dir_name": "0c7619b8-b103-4eb3-9852-8b0ed17f343a",
                "lat": 47.673538,
                "lon": -122.266446,
                "file_names": [
                    "e8bd7ca1-706a-454e-b948-3b84543814e8.jpg"
                ]
            },
            {
                "dir_name": "0ca179c6-d26d-43b1-8ecc-c045c0b59579",
                "lat": 47.674155999999996,
                "lon": -122.129655,
                "file_names": [
                    "25e00120-6fe9-42c9-9b1e-69e21a8e8b24.jpg"
                ]
            },
            {
                "dir_name": "0ca75047-c4ab-41df-9948-998c476fcbbb",
                "lat": 47.300004,
                "lon": -122.220674,
                "file_names": [
                    "d2f92e58-56fb-4631-8463-d34518c63536.jpg",
                    "ddf40ea2-a76e-4a80-b283-4a049802109f.jpg"
                ]
            },
            {
                "dir_name": "0cba09c1-1fe3-428e-b4c1-bca6f1e22f6a",
                "lat": 47.560838000000004,
                "lon": -122.28948899999999,
                "file_names": [
                    "4c588379-cca8-4dc9-8c1d-b2b0e6b3c1f6.jpg"
                ]
            },
            {
                "dir_name": "0cc4d508-d32c-46ef-8b19-6d67876e79f6",
                "lat": 47.636712,
                "lon": -122.344113,
                "file_names": [
                    "0786cf74-d62c-4741-a916-44fdd48ddb83.jpg"
                ]
            },
            {
                "dir_name": "0ce26f04-72b9-4a17-89fc-6e5d3bcdc368",
                "lat": 47.617321000000004,
                "lon": -122.30565,
                "file_names": [
                    "e8916934-e3c2-4bdd-bad5-63c840623d16.jpg"
                ]
            },
            {
                "dir_name": "0ce32e08-1b0d-4a32-81f2-4fdb708be3aa",
                "lat": 47.77235,
                "lon": -122.388719,
                "file_names": [
                    "f89357d0-e33b-40c4-96bb-9ee209b6bbc7.jpg"
                ]
            },
            {
                "dir_name": "0cec1517-da2a-4b15-a600-4074d4ce04eb",
                "lat": 47.61654,
                "lon": -122.326591,
                "file_names": [
                    "2a0ae964-6dd4-4d5a-aa3a-ad864c64f81a.jpg"
                ]
            },
            {
                "dir_name": "0d01646f-6ad6-4a3f-aba5-18dfc053dbdd",
                "lat": 47.648143,
                "lon": -122.14333799999999,
                "file_names": [
                    "180120d6-c1ab-4cd3-936a-9728e2e3a3be.jpg"
                ]
            },
            {
                "dir_name": "0d0339e8-0433-41e0-bd96-e27a9194d4f0",
                "lat": 47.526388,
                "lon": -122.320734,
                "file_names": [
                    "df7d5dd1-9f3e-4c98-81f5-69389519ac28.jpg"
                ]
            },
            {
                "dir_name": "0d1a37d2-32a4-43f4-ac42-2029f68b04de",
                "lat": 47.560488,
                "lon": -122.30061299999998,
                "file_names": [
                    "19cce7f5-9279-4e40-bce4-81f042453bce.jpg"
                ]
            },
            {
                "dir_name": "0d1f0e41-5de9-4257-9bae-d99a5fc53386",
                "lat": 47.58399,
                "lon": -122.29786999999999,
                "file_names": [
                    "71034490-40b2-4900-8c92-8ebfa51422fb.jpg"
                ]
            },
            {
                "dir_name": "0d430d49-25f5-4989-85eb-7f43c73691a0",
                "lat": 47.414965,
                "lon": -122.297656,
                "file_names": [
                    "c71d7374-cb62-4a65-90e4-0c05828a02eb.jpg"
                ]
            },
            {
                "dir_name": "0d5ef304-62ae-4eb2-94ce-ee35673cbe4d",
                "lat": 47.690075,
                "lon": -122.29006100000001,
                "file_names": [
                    "e83fe42a-1d15-42d9-9dcf-2b061b4f8f1e.jpg"
                ]
            },
            {
                "dir_name": "0d78edfb-8a6f-4e76-8093-6fedb3bd1351",
                "lat": 47.70387,
                "lon": -122.183447,
                "file_names": [
                    "3592b07b-2177-4ea8-94a5-e8350b1c81c1.jpg"
                ]
            },
            {
                "dir_name": "0d9d9827-0941-4e52-a8ae-773ec34a4a99",
                "lat": 47.714975,
                "lon": -122.229642,
                "file_names": [
                    "3d80ca47-9235-44e2-a58f-da8119edb62f.jpg"
                ]
            },
            {
                "dir_name": "0dad8b40-6c93-4072-aad4-ec62e502199f",
                "lat": 47.715992,
                "lon": -122.31236799999999,
                "file_names": [
                    "4003e93f-f842-4fb0-97b9-5b35e586d953.jpg"
                ]
            },
            {
                "dir_name": "0db292af-1ffc-44bc-9f48-1b785a482bdf",
                "lat": 47.734313,
                "lon": -122.35495700000001,
                "file_names": [
                    "d8874756-e36b-4667-aadd-b38592e1f052.jpg",
                    "f28f94d8-35e4-46c0-8e97-8e7146a93f47.jpg"
                ]
            },
            {
                "dir_name": "0db908e1-56a5-48c0-9d9c-a23277c25e61",
                "lat": 47.731384000000006,
                "lon": -122.176538,
                "file_names": [
                    "b178b200-443d-470c-a341-460025b139b4.jpg"
                ]
            },
            {
                "dir_name": "0dec9bf6-6afb-4cda-be08-755cd0660c52",
                "lat": 47.55311,
                "lon": -122.289247,
                "file_names": [
                    "712f4330-eb91-4053-bf9c-654b3ae291a0.jpg"
                ]
            },
            {
                "dir_name": "0df06b94-2ad0-4d90-a433-442d9833dcc4",
                "lat": 47.199214000000005,
                "lon": -122.005141,
                "file_names": [
                    "c05f8bcf-ccfe-4660-af3c-407a01933c0a.jpg"
                ]
            },
            {
                "dir_name": "0dfc8ba8-96a2-44b5-9e5f-c67661fa356c",
                "lat": 47.734055,
                "lon": -122.302516,
                "file_names": [
                    "c027f086-abd2-42a1-bbfc-7bc2e35c7791.jpg"
                ]
            },
            {
                "dir_name": "0e02a3fd-0b18-467a-8537-d49e8c5ca25f",
                "lat": 47.712603,
                "lon": -122.33365900000001,
                "file_names": [
                    "3947a9a4-b883-4a93-b5c2-6620dcd4e710.jpg",
                    "a4a86d71-f139-45f7-a45a-199025236fbe.jpg"
                ]
            },
            {
                "dir_name": "0e12b746-5261-4cd3-9915-98dacf06bd38",
                "lat": 47.561238,
                "lon": -122.385177,
                "file_names": [
                    "d13cde21-cb27-41d0-b7d6-d13b750dfc31.jpg"
                ]
            },
            {
                "dir_name": "0e1d6ebd-6172-4fd8-8859-9f0ad6e5d4f5",
                "lat": 47.43978,
                "lon": -122.197273,
                "file_names": [
                    "b3ef3f44-77e7-4ee3-a028-bb5afa01f5a6.jpg"
                ]
            },
            {
                "dir_name": "0e26f3fb-675b-413a-ab98-90bdee8dc4d8",
                "lat": 47.617187,
                "lon": -122.174442,
                "file_names": [
                    "22a20ca7-f7eb-4b7e-925c-ce83ea5dbfb0.jpg",
                    "362326cf-e90c-4e55-8ced-68d9e392db2f.jpg",
                    "4c37663b-64d1-4076-9034-f96091ae18b2.jpg"
                ]
            },
            {
                "dir_name": "0e2c1782-61d5-4841-b97f-c862f26467a9",
                "lat": 47.264556,
                "lon": -122.239869,
                "file_names": [
                    "4c576a25-f74f-43a9-a99f-8f0dcdfd57bb.jpg",
                    "b87f8f42-fb2a-431d-820d-4c3fe2c3014a.jpg",
                    "d63a7c76-6063-4094-9583-59fa1db04a18.jpg"
                ]
            },
            {
                "dir_name": "0e711a5c-a226-4f6f-88aa-c2cd02763358",
                "lat": 47.555,
                "lon": -122.27019299999999,
                "file_names": [
                    "603d35ad-8d82-4323-8f15-03ec42162d85.jpg"
                ]
            },
            {
                "dir_name": "0e7bc79e-fce1-4a3f-b161-a7a79cd9c653",
                "lat": 47.567917,
                "lon": -122.363553,
                "file_names": [
                    "12c83960-388a-4064-8adb-1ed3c963d049.jpg"
                ]
            },
            {
                "dir_name": "0e85d27b-7976-4868-8dac-e3ef02086aa6",
                "lat": 47.560974,
                "lon": -122.293986,
                "file_names": [
                    "7568ae64-c91c-4e76-a581-8507fcc89e2e.jpg",
                    "7d2ce753-d39a-4b4f-a536-3e73bd9451dc.jpg"
                ]
            },
            {
                "dir_name": "0e89493f-14a2-46e8-922b-704bc471b4df",
                "lat": 47.470256,
                "lon": -122.34611100000001,
                "file_names": [
                    "58cce7c3-ca81-4a4f-abba-b820997bac7e.jpg"
                ]
            },
            {
                "dir_name": "0e8af29f-dda3-449c-887d-a4c143480841",
                "lat": 47.470247,
                "lon": -122.34115700000001,
                "file_names": [
                    "0ae8b742-63e6-4205-a469-6df3e85b33f7.jpg"
                ]
            },
            {
                "dir_name": "0e9e60ca-5f09-4871-9b6c-af30760706e4",
                "lat": 47.467814000000004,
                "lon": -122.234241,
                "file_names": [
                    "0ec347c1-eba5-41a2-861d-c297bcc2a432.jpg",
                    "c8822d2a-d10f-4a20-b2e3-90609c4069e1.jpg"
                ]
            },
            {
                "dir_name": "0e9e64b3-0efa-41c2-8346-d00df07662e8",
                "lat": 47.365716,
                "lon": -122.089794,
                "file_names": [
                    "bc7744f4-1804-4534-8fc7-12f85a1d1d83.jpg"
                ]
            },
            {
                "dir_name": "0eade8af-9a66-46da-819e-acde6ccbc78b",
                "lat": 47.638135,
                "lon": -122.3546,
                "file_names": [
                    "117806c9-79d6-4464-bfdd-55beede3331a.jpg",
                    "28614ce9-ccd3-4530-a1de-25abc0c192e9.jpg"
                ]
            },
            {
                "dir_name": "0ed80da9-f2af-494b-b4a6-3612b59af97a",
                "lat": 47.605552,
                "lon": -122.333628,
                "file_names": [
                    "cebfcf95-0b07-4487-80bc-ca564367866d.jpg"
                ]
            },
            {
                "dir_name": "0edc3703-a0e5-416d-9612-d248fd70ab8b",
                "lat": 47.672422,
                "lon": -122.40584399999999,
                "file_names": [
                    "930d984e-a38c-4065-aebc-01f4e947aaa3.jpg"
                ]
            },
            {
                "dir_name": "0ee5cd60-5e51-4fb1-8253-19abf2b5e500",
                "lat": 47.711077,
                "lon": -122.19660400000001,
                "file_names": [
                    "3bb12084-0472-4976-ad2a-c40b7b8f8c7a.jpg",
                    "865f8030-4542-4373-9329-148ea68b048a.jpg"
                ]
            },
            {
                "dir_name": "0eec41d8-5771-447c-8035-ff8734f8cf13",
                "lat": 47.368322,
                "lon": -122.102548,
                "file_names": [
                    "9c59b62e-f1f2-4fa9-8d8c-e21a77455272.jpg"
                ]
            },
            {
                "dir_name": "0f29436f-3bb7-412c-bcbf-62baa28faa01",
                "lat": 47.290917,
                "lon": -122.31326000000001,
                "file_names": [
                    "4a26c453-f768-4965-b8f3-d73403247798.jpg"
                ]
            },
            {
                "dir_name": "0f2adcc7-aadd-4bfb-a8bf-0711a3a0d133",
                "lat": 47.668501,
                "lon": -122.37834199999999,
                "file_names": [
                    "3a409b7b-a716-45f7-8897-40b653ac1034.jpg",
                    "48e9ea4f-2c7b-4ccb-9fae-331d43dd8f8c.jpg"
                ]
            },
            {
                "dir_name": "0f2d7669-630e-46f7-92a9-e62790bf5953",
                "lat": 47.623994,
                "lon": -122.32928899999999,
                "file_names": [
                    "aaacf89e-c4b6-4428-b8c7-4b285ba8ec7f.jpg"
                ]
            },
            {
                "dir_name": "0F512B4B-D5D6-39A5-076E-4B30D5E42612",
                "lat": 47.623929,
                "lon": -122.347871,
                "file_names": [
                    "bfb8bace-b966-4c5a-999f-ab13d74d8570.jpg"
                ]
            },
            {
                "dir_name": "0f71c590-edc0-4c17-a91d-6ab2b0c39b1b",
                "lat": 47.342994,
                "lon": -122.27678799999998,
                "file_names": [
                    "902ee30f-5a5e-462c-b79c-bb5cd0ec45ea.jpg"
                ]
            },
            {
                "dir_name": "0f7d1570-1f7e-4f3f-94ca-1bfa0caed0ab",
                "lat": 47.598754,
                "lon": -122.32784699999999,
                "file_names": [
                    "9220abff-1a19-4c0b-be76-a2df9f753f36.jpg"
                ]
            },
            {
                "dir_name": "0f845256-9233-4005-ba7e-fcf010627a52",
                "lat": 47.591367,
                "lon": -122.327269,
                "file_names": [
                    "5d3ae767-6070-4c1e-9499-08593918c7bc.jpg"
                ]
            },
            {
                "dir_name": "0f93826c-944a-4970-bf8a-fa17392b4f9f",
                "lat": 47.441145,
                "lon": -122.253919,
                "file_names": [
                    "7c150170-8b2f-4fd9-9fc9-9276886680a2.jpg"
                ]
            },
            {
                "dir_name": "0fa3e4f6-bb46-4a02-bcaa-cce87a294072",
                "lat": 47.690801,
                "lon": -122.366744,
                "file_names": [
                    "c6091e7f-cc7b-416c-8b46-406a6c5c446b.jpg"
                ]
            },
            {
                "dir_name": "0faa4ac3-4a52-4b0a-a6bb-a2940c93b54e",
                "lat": 47.722871000000005,
                "lon": -122.291549,
                "file_names": [
                    "64322708-8ef9-4188-aa09-712339e6400c.jpg"
                ]
            },
            {
                "dir_name": "0fab563c-16bd-42b8-a876-b06895000c01",
                "lat": 47.441462,
                "lon": -122.248281,
                "file_names": [
                    "abad2425-670c-41cd-86b7-47c55954e228.jpg"
                ]
            },
            {
                "dir_name": "0fb21c6d-6de7-42d1-929e-f2ae2c852dad",
                "lat": 47.626383000000004,
                "lon": -122.326877,
                "file_names": [
                    "9c6d7eac-19c5-4e1e-a911-fb66fcfbb163.jpg"
                ]
            },
            {
                "dir_name": "0fb38e0a-44fe-40fb-8286-cb06a5218406",
                "lat": 47.624328000000006,
                "lon": -122.191185,
                "file_names": [
                    "c361a620-b999-407d-8a1f-cbc203fcc16c.jpg"
                ]
            },
            {
                "dir_name": "0fd0374b-7730-4116-a80f-ff784bdef3c0",
                "lat": 47.557204,
                "lon": -122.376461,
                "file_names": [
                    "98f09aba-13e1-4fe1-be8d-440e4ad40ae7.jpg"
                ]
            },
            {
                "dir_name": "0fd20bf0-f5f8-4571-af62-93ff89b6c699",
                "lat": 47.569998,
                "lon": -122.16970400000001,
                "file_names": [
                    "1da3150a-36d7-464a-8ef3-5314f27f952e.jpg",
                    "e92a44bf-43d4-437b-8c79-7456f6cb4e72.jpg"
                ]
            },
            {
                "dir_name": "0fde95c3-8bf9-452a-8689-153508c2fe20",
                "lat": 47.619777,
                "lon": -122.32167199999999,
                "file_names": [
                    "b0ef148d-ae61-40bd-b18d-84d471b32afb.jpg"
                ]
            },
            {
                "dir_name": "10185dae-0e0b-4ec1-928a-ef9436ab14d5",
                "lat": 47.529322,
                "lon": -122.033128,
                "file_names": [
                    "83277152-47fa-41f0-a8e8-a3b635fa6041.jpg"
                ]
            },
            {
                "dir_name": "103cfcfd-1647-426a-a2ce-051c2d896159",
                "lat": 47.65002,
                "lon": -122.30704399999999,
                "file_names": [
                    "7abe75c7-3eca-42c1-bbdd-8fe7cf50a16c.jpg"
                ]
            },
            {
                "dir_name": "1044da23-d14f-46a6-b1d5-b9e5873cbd4d",
                "lat": 47.601543,
                "lon": -122.308472,
                "file_names": [
                    "257d9cc2-72e4-46fa-aa85-e42326d5cd59.jpg"
                ]
            },
            {
                "dir_name": "10479e23-560d-43a3-9620-4c9a7c159a17",
                "lat": 47.60334,
                "lon": -122.153641,
                "file_names": [
                    "047a9275-0e73-4fdf-a0a4-f3dcd5322b97.jpg"
                ]
            },
            {
                "dir_name": "10522283-aecc-4bb9-8ca2-5cccd185598a",
                "lat": 47.584773,
                "lon": -122.321126,
                "file_names": [
                    "f4849277-2a65-4bfc-97b2-cbbee4d03e8c.jpg"
                ]
            },
            {
                "dir_name": "1060fc58-7b25-46cc-9c42-0d7532e12876",
                "lat": 47.389078999999995,
                "lon": -122.191783,
                "file_names": [
                    "18869a25-5730-415e-98e2-5fdc33252519.jpg"
                ]
            },
            {
                "dir_name": "107e79ed-bf9c-4e46-a717-999d51ff79e0",
                "lat": 47.615426,
                "lon": -122.315924,
                "file_names": [
                    "6fae4d6d-34e2-489e-b9cd-7db5629edbc7.jpg"
                ]
            },
            {
                "dir_name": "108511e8-6763-4515-acce-0446ac4a0c2c",
                "lat": 47.441796000000004,
                "lon": -122.299952,
                "file_names": [
                    "89cf14ff-39db-4482-b801-3e6e0a1cfcbb.jpg"
                ]
            },
            {
                "dir_name": "10a2084b-4cb4-46b7-bb72-fd1010e4c202",
                "lat": 47.568002,
                "lon": -122.01876499999999,
                "file_names": [
                    "24c058dc-7644-40e4-ad64-dd8a10b75ea9.jpg"
                ]
            },
            {
                "dir_name": "10baf787-762c-4663-98cd-554b8422cef8",
                "lat": 47.690903999999996,
                "lon": -122.34426200000001,
                "file_names": [
                    "7453b672-350c-4696-9bcd-90292868fdb9.jpg"
                ]
            },
            {
                "dir_name": "10c1280e-1845-4257-b5db-3f41dfd94bd6",
                "lat": 47.618688,
                "lon": -122.341923,
                "file_names": [
                    "71cafa7a-98bc-439a-b952-363f3dd4e96b.jpg"
                ]
            },
            {
                "dir_name": "10c3653c-3db9-442a-83f6-6ea50aeea4ae",
                "lat": 47.522534,
                "lon": -122.387138,
                "file_names": [
                    "eba468e7-2a9d-4d43-90ca-5934b0dc4ff2.jpg"
                ]
            },
            {
                "dir_name": "10dc42af-155b-4d6a-b1da-fb6a6c3f88d1",
                "lat": 47.575308,
                "lon": -122.17246399999999,
                "file_names": [
                    "fa122941-d5da-4e7a-b1ed-d3fd25e7b6d4.jpg"
                ]
            },
            {
                "dir_name": "10ffe12a-6790-468e-bf56-1f8a2f8b8438",
                "lat": 47.672475,
                "lon": -122.31758300000001,
                "file_names": [
                    "d7af510e-a609-4e38-b59a-c59a48a7b528.jpg"
                ]
            },
            {
                "dir_name": "110d847e-7d96-4d52-bd33-311ef0787771",
                "lat": 47.635031,
                "lon": -122.34061200000001,
                "file_names": [
                    "2904bdfd-89d4-46e2-a059-dd03c7f8e52d.jpg"
                ]
            },
            {
                "dir_name": "1116de1a-d3d4-4f49-a9b7-9a0d2ed1d3fe",
                "lat": 47.632653000000005,
                "lon": -122.182004,
                "file_names": [
                    "48d1d19c-eb67-4c58-b33c-cbac2681aeb3.jpg"
                ]
            },
            {
                "dir_name": "114deb6b-32dc-4036-b7c7-dd0e812df634",
                "lat": 47.618347,
                "lon": -122.326072,
                "file_names": [
                    "7a526d83-96c3-4680-8714-85f4df71cc26.jpg"
                ]
            },
            {
                "dir_name": "115b6c0d-a2d4-43f7-8d62-b033a8fb9638",
                "lat": 47.561890000000005,
                "lon": -122.33961200000002,
                "file_names": [
                    "8c00cf13-62e0-46e5-aa9b-6f71e22ae62f.jpg"
                ]
            },
            {
                "dir_name": "115e10ca-c0f2-4c0b-98da-be22e5a71866",
                "lat": 47.199246,
                "lon": -122.00183200000001,
                "file_names": [
                    "527348b3-f296-4122-833b-c1fe4aac52d1.jpg"
                ]
            },
            {
                "dir_name": "1162ecb2-c7d4-4e22-a9e2-d000724670ab",
                "lat": 47.708415,
                "lon": -122.335144,
                "file_names": [
                    "1b1e5c68-0e22-4e07-a152-1e20a030cb65.jpg"
                ]
            },
            {
                "dir_name": "11701fd4-b377-420d-a25b-3bcd2cfb36c0",
                "lat": 47.476292,
                "lon": -122.258579,
                "file_names": [
                    "3b47ad40-eca2-4dc0-96cc-a79ef99e581a.jpg",
                    "adf5899f-b84e-46c9-8190-5728ff3ca24d.jpg"
                ]
            },
            {
                "dir_name": "119f62ec-3a37-49d9-9c12-e60595484a8c",
                "lat": 47.426117,
                "lon": -122.24991999999999,
                "file_names": [
                    "bda5d532-ac24-49a0-bdc2-64808c3729b2.jpg"
                ]
            },
            {
                "dir_name": "11b5a292-7298-44b2-8b48-e6860ed6e430",
                "lat": 47.697443,
                "lon": -122.13235,
                "file_names": [
                    "1bb6bb98-ce30-4d82-b26d-3c059257c279.jpg"
                ]
            },
            {
                "dir_name": "11cb2ea5-72f0-4c46-90be-cf35b5192df9",
                "lat": 47.599646,
                "lon": -122.32741499999999,
                "file_names": [
                    "5e789907-9aec-47e1-a76b-dd33433a9679.jpg"
                ]
            },
            {
                "dir_name": "11cff6ea-40f4-46e5-bf3e-fa58815b8ec6",
                "lat": 47.757038,
                "lon": -122.24301299999999,
                "file_names": [
                    "fed3fd30-9134-48c5-91aa-e831c04a884d.jpg"
                ]
            },
            {
                "dir_name": "11d77ecd-a6ac-4e2c-9f1e-f8195446f87c",
                "lat": 47.473898999999996,
                "lon": -122.268134,
                "file_names": [
                    "a86bc814-8ce4-471c-9441-e1e7b8f8594a.jpg"
                ]
            },
            {
                "dir_name": "1207a366-58fd-49e6-a22b-397e38d09415",
                "lat": 47.517521,
                "lon": -122.355792,
                "file_names": [
                    "25e2a554-b236-4891-998c-a9088d49ac2d.jpg",
                    "b4a876a0-e9a8-4fc9-bdaf-a608df6d9a3c.jpg"
                ]
            },
            {
                "dir_name": "120b05d0-8e45-40aa-8fc2-9e7f5095823b",
                "lat": 47.364746999999994,
                "lon": -122.110969,
                "file_names": [
                    "4ee051bc-31a9-494e-b8be-4eb850106e27.jpg"
                ]
            },
            {
                "dir_name": "1217d8da-48fd-46c8-93d4-3b78ea885c31",
                "lat": 47.705162,
                "lon": -122.290524,
                "file_names": [
                    "1690e656-43cb-4a86-b06c-a9a27388de63.jpg"
                ]
            },
            {
                "dir_name": "1230b962-4a87-4a6a-8601-edc94f868f36",
                "lat": 47.699013,
                "lon": -122.02306999999999,
                "file_names": [
                    "3197688b-7837-435b-904e-e39d5a05a2d3.jpg"
                ]
            },
            {
                "dir_name": "123bdb08-09e2-47a7-9f68-e6d638a0c13d",
                "lat": 47.676173999999996,
                "lon": -122.40646799999999,
                "file_names": [
                    "5ed1832c-7448-4dc2-9d15-82c210741541.jpg"
                ]
            },
            {
                "dir_name": "12402eec-6850-421b-9c80-8506a508ded2",
                "lat": 47.307767,
                "lon": -122.22385200000001,
                "file_names": [
                    "7f598c14-aec5-40f0-ac5f-e7e2adf84cf3.jpg"
                ]
            },
            {
                "dir_name": "12562652-c64e-4234-95c4-7654b11f82bd",
                "lat": 47.29226,
                "lon": -122.3228,
                "file_names": [
                    "0251d40b-8086-4087-b7fd-24166f4cc69e.jpg",
                    "05ce011d-b3df-488e-970a-803c332a6992.jpg",
                    "edb8c15a-eb72-4469-8ae8-7b56f9d53f44.jpg"
                ]
            },
            {
                "dir_name": "125b6a99-cbb8-41b5-946e-bca5dd59f3f4",
                "lat": 47.536771,
                "lon": -122.281351,
                "file_names": [
                    "82e17f64-e7fc-47ff-af2f-1fb6c8d015cb.jpg"
                ]
            },
            {
                "dir_name": "1268114f-9ea6-4489-9754-a884ded79cb7",
                "lat": 47.206728000000005,
                "lon": -122.00853300000001,
                "file_names": [
                    "2040c6fd-4a6d-442d-a8e5-2506dc4dd1be.jpg"
                ]
            },
            {
                "dir_name": "12682421-b5e4-4621-a83a-80500df478e4",
                "lat": 47.760805,
                "lon": -122.28651,
                "file_names": [
                    "42a04642-cd72-43ca-9489-a2898cbb16fd.jpg"
                ]
            },
            {
                "dir_name": "126d64f2-04a9-4998-9381-3c4c66238589",
                "lat": 47.670424,
                "lon": -122.37597199999999,
                "file_names": [
                    "24966803-6bbc-4e3b-8515-38f08cd51de3.jpg",
                    "5a7112b5-4d53-4515-937c-bcec0c1faafa.jpg"
                ]
            },
            {
                "dir_name": "12759ac6-11bf-43ef-be0d-1957879f9082",
                "lat": 47.527893,
                "lon": -122.323077,
                "file_names": [
                    "0d6d3fd7-1b38-4628-9177-25f31efc4079.jpg"
                ]
            },
            {
                "dir_name": "127df327-cd29-4e25-a5fb-0f15ba511ff5",
                "lat": 47.474593,
                "lon": -122.281352,
                "file_names": [
                    "778a85e7-e7ec-4411-a7cb-53dd9d4fcd0a.jpg"
                ]
            },
            {
                "dir_name": "12afa8c2-eb05-498c-84ec-14f9010da962",
                "lat": 47.678422999999995,
                "lon": -122.209267,
                "file_names": [
                    "ab613bfd-aeea-4f43-b6be-a969007e8017.jpg"
                ]
            },
            {
                "dir_name": "12b78e10-6ccb-4b51-852d-f980d3e8b8a6",
                "lat": 47.632222999999996,
                "lon": -122.153512,
                "file_names": [
                    "6910fd1c-64b5-4066-819c-c0d8d698e41c.jpg"
                ]
            },
            {
                "dir_name": "12c4726c-b65b-41e9-b0bf-ee4a22adb9cc",
                "lat": 47.622357,
                "lon": -122.15383899999999,
                "file_names": [
                    "263eb870-2592-4abd-a396-0310900c722c.jpg",
                    "9e1f6e3b-9b17-4d5f-a140-a7a2fedb27a8.jpg"
                ]
            },
            {
                "dir_name": "12d6a39f-88c5-4a88-a544-513e217a2637",
                "lat": 47.504884000000004,
                "lon": -122.253201,
                "file_names": [
                    "23deb0ab-426f-40d2-bc44-b4337432a054.jpg"
                ]
            },
            {
                "dir_name": "12e3b0d0-2b9f-4aed-b97a-2e91e9448615",
                "lat": 47.625692,
                "lon": -122.12185900000001,
                "file_names": [
                    "b860f15a-9c15-4969-bdaf-17703729dec9.jpg",
                    "bf4e0224-d8df-412b-a280-3b66d0467611.jpg"
                ]
            },
            {
                "dir_name": "12eaac6b-fd78-43b0-a81f-a3e58e817d31",
                "lat": 47.675144,
                "lon": -122.14664199999999,
                "file_names": [
                    "23cc4612-868f-4a38-9548-7c805e9d258e.jpg",
                    "edcf6bdd-da2d-42ee-93b4-451af0082390.jpg"
                ]
            },
            {
                "dir_name": "130a53d3-e006-46db-b23f-09812c89b56d",
                "lat": 47.321389,
                "lon": -122.219371,
                "file_names": [
                    "1fc856b2-f5d0-4f77-8911-3d556d87a78f.jpg"
                ]
            },
            {
                "dir_name": "130e279b-617a-4abd-be61-f1965fcddaa3",
                "lat": 47.359352,
                "lon": -122.10600900000001,
                "file_names": [
                    "24c0c08e-455a-4132-866e-cf3e87701541.jpg",
                    "5428cc8a-0e89-4413-9728-897c67107dbf.jpg",
                    "e6d94e85-b02f-4ed4-9f12-bda5f8cb0b7c.jpg"
                ]
            },
            {
                "dir_name": "13238e69-c062-49d4-b165-5f7f86b2e5e6",
                "lat": 47.6901,
                "lon": -122.344788,
                "file_names": [
                    "da692612-2370-4362-88cb-21e1e20273f7.jpg"
                ]
            },
            {
                "dir_name": "1359a663-ea0f-4e67-87cc-236bd1ceb126",
                "lat": 47.579336,
                "lon": -122.151402,
                "file_names": [
                    "a202c53d-ab06-41da-8e38-4f259e87cfb7.jpg"
                ]
            },
            {
                "dir_name": "136a9708-e8ed-475b-998c-79cd20645f0a",
                "lat": 47.712215,
                "lon": -122.18672099999999,
                "file_names": [
                    "4908e39d-cf7c-419c-993b-2a63d68297a1.jpg",
                    "df9c6070-6776-4957-b578-5784ecfe3282.jpg"
                ]
            },
            {
                "dir_name": "136b1635-4634-4d0a-8ed8-208bb26ea960",
                "lat": 47.613937,
                "lon": -122.329006,
                "file_names": [
                    "0c000a3f-6d26-47b2-95c7-39e4d288952e.jpg",
                    "20444530-b83b-435f-93f5-1947cf793ab0.jpg"
                ]
            },
            {
                "dir_name": "137297fd-3a7e-4515-b25c-b9fd4529497f",
                "lat": 47.513907,
                "lon": -122.386232,
                "file_names": [
                    "438ae518-8ba5-4efb-9e1b-0320cbc6ae0c.jpg",
                    "5dab683b-0413-4d0b-9211-cd42872fe8be.jpg"
                ]
            },
            {
                "dir_name": "13780d13-4751-4cc7-bc0a-147710c132fc",
                "lat": 47.776658000000005,
                "lon": -122.313999,
                "file_names": [
                    "e33cf8a3-89d7-44ed-a7f9-69085ed0bf16.jpg"
                ]
            },
            {
                "dir_name": "13939faa-f03a-432d-8a5e-a5f1802b5caf",
                "lat": 47.499854,
                "lon": -122.333476,
                "file_names": [
                    "369444ec-adc5-419a-96c0-bf45ee4c024e.jpg",
                    "43980437-52f3-473f-8b12-735a6998241a.jpg"
                ]
            },